{
    "universities": [
        {
            "name": "Universitat Politècnica de Catalunya",
            "acronym": "UPC",
            "type": "campus",
            "areas": [
                {
                    "name": "Barcelona-Campus Diagonal Nord",
                    "address": "Edifici PO (Poliesportiu) - Campus Nord, Carrer de Jordi Girona, 1-3, 08034 Barcelona",
                    "coordinates": [
                        41.388378440945935,
                        2.1132922874645637
                    ]
                },
                {
                    "name": "Barcelona-Campus Diagonal Sud",
                    "address": "Campus Diagonal Sud, Carrer de Pau Gargallo, 14, 08028 Barcelona",
                    "coordinates": [
                        41.38367019401659,
                        2.116304699987827
                    ]
                },
                {
                    "name": "Barcelona/Sant Adrià de Besòs-Campus Diagonal-Besòs",
                    "address": "Campus Diagonal Besòs, Edificio A (EEBE, C. d'Eduard Maristany, 16, 08019 Barcelona",
                    "coordinates": [
                        41.41357367913669,
                        2.2219767130708377
                    ]
                },
                {
                    "name": "Barcelona-Campus de Náutica",
                    "address": "Pla de Palau, 18, 08003 Barcelona",
                    "coordinates": [
                        41.38251399990793,
                        2.184803746028207
                    ]
                },
                {
                    "name": "Campus del Baix Llobregat",
                    "address": "08860 Castelldefels, Barcelona",
                    "coordinates": [
                        41.2755699849751,
                        1.986003740052732
                    ]
                },
                {
                    "name": "Campus de Manresa",
                    "address": "Av. de les Bases de Manresa, 61, 73, 08242 Manresa, Barcelona",
                    "coordinates": [
                        41.73713017391097,
                        1.8290191306854715
                    ]
                },
                {
                    "name": "Campus de Sant Cugat del Vallès",
                    "address": "Carrer de Pere Serra, 1, 15, 08173 Sant Cugat del Vallès, Barcelona",
                    "coordinates": [
                        41.470083817816544,
                        2.0708797000000003
                    ]
                },
                {
                    "name": "Campus de Terrassa",
                    "coordinates": [
                        41.563240048433286,
                        2.023227746028207
                    ],
                    "address": "Carrer de Colom, 11, 08222 Terrassa, Barcelona"
                },
                {
                    "name": "Campus de Vilanova i la Geltrú",
                    "coordinates": [
                        41.22152106740513,
                        1.7298872995723238
                    ],
                    "address": "Av. de Víctor Balaguer, 1, 08800 Vilanova i la Geltrú, Barcelona"
                }
            ]
        },
        {
            "name": "Image Processing and Multimedia Technology Centre",
            "type": "center",
            "acronym": "CITM",
            "parent": "Universitat Politècnica de Catalunya",
            "areas": [
                {
                    "name": "Image Processing and Multimedia Technology Centre",
                    "coordinates": [
                        41.56468866029147,
                        2.020270817595246
                    ],
                    "address": "Carrer de la Igualtat, 33, 08222 Terrassa, Barcelona"
                }
            ]
        },
        {
            "name": "Euncet University Business School",
            "type": "school",
            "parent": "Universitat Politècnica de Catalunya",
            "areas": [
                {
                    "name": "Euncet University Business School",
                    "address": "Camí del Mas Rubial, 1, 08225 Terrassa, Barcelona",
                    "coordinates": [
                        41.59987394767506,
                        2.0153469977335408
                    ]
                }
            ]
        },
        {
            "name": "Universitat Internacional de Catalunya",
            "acronym": "UIC",
            "type": "campus",
            "areas": [
                {
                    "name": "Campus Barcelona",
                    "address": "C. de la Immaculada, 22, 08017 Barcelona",
                    "coordinates": [
                        41.40577290901621,
                        2.123528768892203
                    ]
                },
                {
                    "name": "Campus Sant Cugat",
                    "address": "Carrer de Josep Trueta, 08195 Sant Cugat del Vallès, Barcelona",
                    "coordinates": [
                        41.47410648837216,
                        2.0436998554012393
                    ]
                }
            ]
        },
        {
            "name": "Universitat de Barcelona",
            "acronym": "UB",
            "type": "faculties",
            "areas": [
                {
                    "name": "Facultat de Belles Arts",
                    "address": "Carrer de Pau Gargallo, 4, 08028 Barcelona",
                    "coordinates": [
                        41.3831431281259,
                        2.1139743688915433
                    ]
                },
                {
                    "name": "Facultat de Biologia",
                    "address": "Avinguda Diagonal, 643, 08028 Barcelona",
                    "coordinates": [
                        41.38558727768846,
                        2.119859813070028
                    ]
                },
                {
                    "name": "Facultat de Ciències de la Terra",
                    "address": "Martí i Franquès, s/n, 08028 Barcelona",
                    "coordinates": [
                        41.384509224442034,
                        2.1197252688915706
                    ]
                },
                {
                    "name": "Facultat de Dret",
                    "address": "Universitat de Barcelona, Avinguda Diagonal, 684, 08028 Barcelona",
                    "coordinates": [
                        41.38771625230154,
                        2.120813851426937
                    ]
                },
                {
                    "name": "Facultat d’Economia i Empresa",
                    "address": "Avinguda Diagonal, 690, 696, 08034 Barcelona",
                    "coordinates": [
                        41.38555417462588,
                        2.113744697727286
                    ]
                },
                {
                    "name": "Facultat d’Educació",
                    "address": "Passeig de la Vall d'Hebron, 171, 08035 Barcelona",
                    "coordinates": [
                        41.43762956771714,
                        2.1452751688931233
                    ]
                },
                {
                    "name": "Facultat de Farmàcia i Ciències de l’Alimentació",
                    "address": "Campus Diagonal, Av. de Joan XXIII, 27-31, 08028 Barcelona",
                    "coordinates": [
                        41.385775024706525,
                        2.12166449772731
                    ]
                },
                {
                    "name": "Facultat de Filologia i Comunicació",
                    "address": "Gran Via de les Corts Catalanes, 585, 08007 Barcelona",
                    "coordinates": [
                        41.386459773280464,
                        2.1638058130700797
                    ]
                },
                {
                    "name": "Facultat de Filosofia",
                    "address": "Carrer de Montalegre, 6, 08001 Barcelona",
                    "coordinates": [
                        41.384132127357496,
                        2.1674347553986073
                    ]
                },
                {
                    "name": "Facultat de Física",
                    "address": "Carrer de Martí i Franquès, 1, 11, 08028 Barcelona",
                    "coordinates": [
                        41.38446477723649,
                        2.1171996265629596
                    ]
                },
                {
                    "name": "Facultat de Geografia i Història",
                    "coordinates": [
                        41.384244824224545,
                        2.1674240265629234
                    ],
                    "address": "Carrer de Montalegre, 6, 08001 Barcelona"
                },
                {
                    "name": "Facultat d'Informació i Mitjans Audiovisuals",
                    "address": "Carrer de Melcior de Palau, 140, 08014 Barcelona",
                    "coordinates": [
                        41.38125708162191,
                        2.139160640055808
                    ]
                },
                {
                    "name": "Facultat de Matemàtiques i Informàtica",
                    "address": "Gran Via de les Corts Catalanes, 585, 08007 Barcelona",
                    "coordinates": [
                        41.38691157042144,
                        2.164295940055989
                    ]
                },
                {
                    "name": "Facultat de Medicina i Ciències de la Salut",
                    "address": "Carrer de Casanova, 143, 08036 Barcelona",
                    "coordinates": [
                        41.38984186643409,
                        2.152631011220361
                    ]
                },
                {
                    "name": "Facultat de Facultat de Psicologia",
                    "address": "Passeig de la Vall d'Hebron, 171, 08035 Barcelona",
                    "coordinates": [
                        41.438079096550986,
                        2.1433141554001947
                    ]
                },
                {
                    "name": "Facultat de Facultat de Química",
                    "address": "Carrer de Martí i Franquès, 1-11, 08028 Barcelona",
                    "coordinates": [
                        41.385472623639124,
                        2.117669455398647
                    ]
                }
            ]
        },
        {
            "name": "Campus Docent Sant Joan de Déu",
            "parent": "Universitat de Barcelona",
            "type": "campus",
            "areas": [
                {
                    "name": "Campus Docent Sant Joan de Déu",
                    "address": "C/ Sant, C. de Sta. Benito Menni, 18-20, 08830 Sant Boi de Llobregat, Barcelona",
                    "coordinates": [
                        41.35174383349826,
                        2.0352503445976367
                    ]
                }
            ]
        },
        {
            "name": "Centre d’Estudis Internacionals",
            "parent": "Universitat de Barcelona",
            "acronym": "CEI",
            "type": "center",
            "areas": [
                {
                    "name": "Centre d’Estudis Internacionals",
                    "address": "Av. de Vallvidrera, 25, 08017 Barcelona",
                    "coordinates": [
                        41.406486884606494,
                        2.1143414553992876
                    ]
                }
            ]
        },
        {
            "name": "Escola Universitària d’Hoteleria i Turisme",
            "parent": "Universitat de Barcelona",
            "acronym": "CETT",
            "type": "school",
            "areas": [
                {
                    "name": "Escola Universitària d’Hoteleria i Turisme",
                    "address": "Carrer del Pintor Alsamora, 3, 08016 Barcelona",
                    "coordinates": [
                        41.434155963999956,
                        2.1811561419071106
                    ]
                }
            ]
        },
        {
            "name": "Escola de Noves Tecnologies Interactives",
            "parent": "Universitat de Barcelona",
            "acronym": "ENTI",
            "type": "school",
            "areas": [
                {
                    "name": "Escola de Noves Tecnologies Interactives",
                    "address": "Carrer de Baldiri Reixac, 7, 08028 Barcelona",
                    "coordinates": [
                        41.382426979353546,
                        2.1167846572483593
                    ]
                }
            ]
        },
        {
            "name": "Escola Superior de Cinema i Audiovisuals de Catalunya",
            "parent": "Universitat de Barcelona",
            "acronym": "ESCAC",
            "type": "school",
            "areas": [
                {
                    "name": "Escola Superior de Cinema i Audiovisuals de Catalunya",
                    "address": "Plaça de la Farinera, 9, 08222 Terrassa, Barcelona",
                    "coordinates": [
                        41.56110936905563,
                        2.0228480995821885
                    ]
                }
            ]
        },
        {
            "name": "Escola Superior de Relacions Públiques",
            "parent": "Universitat de Barcelona",
            "acronym": "ESRP",
            "type": "school",
            "areas": [
                {
                    "name": "Escola Superior de Relacions Públiques",
                    "address": "C/ de Sepúlveda, 50, 08015 Barcelona",
                    "coordinates": [
                        41.37739823989791,
                        2.1549418400557006
                    ]
                }
            ]
        },
        {
            "name": "Escola Universitària de Comerç i Distribució",
            "parent": "Universitat de Barcelona",
            "acronym": "ESCODI",
            "type": "school",
            "areas": [
                {
                    "name": "Escola Universitària de Comerç i Distribució",
                    "address": "Vapor Universitari, Carrer de Colom, 114, 08222 Terrassa, Barcelona",
                    "coordinates": [
                        41.55892012910934,
                        2.0237022554036934
                    ]
                }
            ]
        },
        {
            "name": "Institut Nacional d’Educació Física de Catalunya",
            "parent": "Universitat de Barcelona",
            "acronym": "INEFC",
            "type": "institute",
            "areas": [
                {
                    "name": "Institut Nacional d’Educació Física de Catalunya",
                    "address": "Av. de l'Estadi, 12. 08038 Barcelona",
                    "coordinates": [
                        41.36461161015747,
                        2.147183740055319
                    ]
                }
            ]
        },
        {
            "name": "Institut de Seguretat Pública de Catalunya",
            "parent": "Universitat de Barcelona",
            "acronym": "ISPC",
            "type": "institute",
            "areas": [
                {
                    "name": "Institut de Seguretat Pública de Catalunya",
                    "address": "08100 Mollet del Vallès, Barcelona",
                    "coordinates": [
                        41.55425725319785,
                        2.226772941910616
                    ]
                }
            ]
        },
        {
            "name": "Centre Universitari Internacional de Barcelona",
            "parent": "Universitat de Barcelona",
            "acronym": "UNIBA",
            "type": "center",
            "areas": [
                {
                    "name": "Centre Universitari Internacional de Barcelona",
                    "coordinates": [
                        41.36384526302697,
                        2.101876484657264
                    ],
                    "address": "Av. de Josep Tarradellas i Joan, 171, 08901 L'Hospitalet de Llobregat, Barcelona"
                }
            ]
        },
        {
            "name": "Universitat Autònoma de Barcelona",
            "acronym": "UAB",
            "type": "campus",
            "areas": [
                {
                    "name": "Campus de Bellaterra",
                    "address": "Plaça Cívica, 08193 Bellaterra, Barcelona",
                    "coordinates": [
                        41.50613010080779,
                        2.103939945863225
                    ]
                },
                {
                    "name": "Campus de Sabadell",
                    "address": "Carrer Emprius, 2, 08202 Sabadell, Barcelona",
                    "coordinates": [
                        41.547016363963685,
                        2.119297197732004
                    ]
                }
            ]
        },
        {
            "name": "EINA, Centre Universitari de Disseny i Art de Barcelona",
            "parent": "Universitat Autònoma de Barcelona",
            "type": "center",
            "areas": [
                {
                    "name": "EINA, Centre Universitari de Disseny i Art de Barcelona",
                    "address": "Passeig de Santa Eulàlia, 25, 08017 Barcelona",
                    "coordinates": [
                        41.40296059622568,
                        2.1143675688921384
                    ]
                }
            ]
        },
        {
            "name": "Escola Massana, Centre Municipal d'Art i Disseny",
            "parent": "Universitat Autònoma de Barcelona",
            "type": "school",
            "areas": [
                {
                    "name": "Escola Massana, Centre Municipal d'Art i Disseny",
                    "address": "Carrer de l'Hospital, 56, 08001 Barcelona",
                    "coordinates": [
                        41.38126800889108,
                        2.1713440380846207
                    ]
                }
            ]
        },
        {
            "name": "Escola Universitària d'Infermeria de Sant Pau",
            "parent": "Universitat Autònoma de Barcelona",
            "type": "school",
            "areas": [
                {
                    "name": "Escola Universitària d'Infermeria de Sant Pau",
                    "address": "Hospital de la Santa Creu i Sant Pau, Carrer de Sant Antoni Maria Claret, 167, 08025 Barcelona",
                    "coordinates": [
                        41.41273582674071,
                        2.1760509265637604
                    ]
                }
            ]
        },
        {
            "name": "Escola Universitària d'Informàtica Tomàs Cerdà",
            "parent": "Universitat Autònoma de Barcelona",
            "type": "school",
            "areas": [
                {
                    "name": "Escola Universitària d'Informàtica Tomàs Cerdà",
                    "address": "Avinguda de la Generalitat, 202, 08174 Sant Cugat del Vallès, Barcelona",
                    "coordinates": [
                        41.49076772789716,
                        2.0715618554017268
                    ]
                }
            ]
        },
        {
            "name": "Escola Universitària Salesiana de Sarrià",
            "parent": "Universitat Autònoma de Barcelona",
            "type": "school",
            "areas": [
                {
                    "name": "Escola Universitària Salesiana de Sarrià",
                    "address": "Passeig de Sant Joan Bosco, 74, 08017 Barcelona",
                    "coordinates": [
                        41.395541443662545,
                        2.126463968891893
                    ]
                }
            ]
        },
        {
            "name": "Escola Universitària d'Infermeria i de Fisioteràpia Gimbernat",
            "parent": "Universitat Autònoma de Barcelona",
            "type": "school",
            "areas": [
                {
                    "name": "Escola Universitària d'Infermeria i de Fisioteràpia Gimbernat",
                    "address": "Avinguda de la Generalitat, 202, 08174 Sant Cugat del Vallès, Barcelona",
                    "coordinates": [
                        41.49075969132826,
                        2.071540397730359
                    ]
                }
            ]
        },
        {
            "name": "Escola Universitària d'Infermeria i Teràpia Ocupacional",
            "acronym": "EUIT",
            "parent": "Universitat Autònoma de Barcelona",
            "type": "school",
            "areas": [
                {
                    "name": "Escola Universitària d'Infermeria i Teràpia Ocupacional",
                    "address": "Carrer de la Riba, 90, 08221 Terrassa, Barcelona",
                    "coordinates": [
                        41.562716476869966,
                        2.0171931554038145
                    ]
                }
            ]
        },
        {
            "name": "Institut Guttmann",
            "parent": "Universitat Autònoma de Barcelona",
            "type": "institute",
            "areas": [
                {
                    "name": "Institut Guttmann",
                    "address": "Camí de Can Ruti, s/n, 08916 Badalona, Barcelona",
                    "coordinates": [
                        41.48039436258786,
                        2.2364642909966173
                    ]
                }
            ]
        },
        {
            "name": "Vall d'Hebron Institut de Recerca",
            "parent": "Universitat Autònoma de Barcelona",
            "acronym": "VHIR",
            "type": "institute",
            "areas": [
                {
                    "name": "Vall d'Hebron Institut de Recerca",
                    "address": "Edifici Collserola Hospital Universitari Vall d'Hebron, Passeig de la Vall d'Hebron, 129, 08035 Barcelona",
                    "coordinates": [
                        41.42950827436649,
                        2.1384203553999295
                    ]
                }
            ]
        },
        {
            "name": "Universitat Pompeu Fabra",
            "acronym": "UPF",
            "type": "campus",
            "areas": [
                {
                    "name": "Campus Ciutadella",
                    "address": "Carrer de Ramon Trias Fargas, 25, 27, 08005 Barcelona",
                    "coordinates": [
                        41.38963997926792,
                        2.1903685995772175
                    ]
                },
                {
                    "name": "Campus Poblenou",
                    "address": "Carrer de Roc Boronat, 138, 08018 Barcelona",
                    "coordinates": [
                        41.404232178040694,
                        2.193841497727855
                    ]
                },
                {
                    "name": "Campus Mar",
                    "address": "C/ del Dr. Aiguader, 80, 08003 Barcelona",
                    "coordinates": [
                        41.38454212289082,
                        2.193953582384547
                    ]
                }
            ]
        },
        {
            "name": "Universitat de Lleida",
            "acronym": "UDL",
            "type": "campus",
            "areas": [
                {
                    "name": "Campus de Cappont",
                    "address": "C/ de Jaume II, 71, 25001 Lleida",
                    "coordinates": [
                        41.60893989536582,
                        0.6240651842408451
                    ]
                },
                {
                    "name": "Campus Agroalimentari, Forestal i Veterinari",
                    "address": "Av. Alcalde Rovira Roure, 191, 25198 Lleida",
                    "coordinates": [
                        41.628305566632584,
                        0.5981379977343811
                    ]
                },
                {
                    "name": "Campus de Ciències de la Salut",
                    "address": "Carrer de Montserrat Roig, 2, 25198 Lleida",
                    "coordinates": [
                        41.6235280178815,
                        0.616695561331308
                    ]
                },
                {
                    "name": "Campus d'Igualada",
                    "address": "Campus d'Igualada, Av. Pla de la Massa, 8, 08700 Igualada, Barcelona",
                    "coordinates": [
                        41.58609327610192,
                        1.5938381842401803
                    ]
                }
            ]
        },
        {
            "name": "Escola Universitària de Relacions Laborals",
            "parent": "Universitat de Lleida",
            "acronym": "EURL",
            "type": "school",
            "areas": [
                {
                    "name": "Escola Universitària de Relacions Laborals",
                    "address": "Carrer Vallcalent, 65, 25006 Lleida",
                    "coordinates": [
                        41.61796637138406,
                        0.6159492282178691
                    ]
                }
            ]
        },
        {
            "name": "Institut Nacional d'Educació Física de Catalunya",
            "parent": "Universitat de Lleida",
            "type": "institute",
            "acronym": "INEFC",
            "areas": [
                {
                    "name": "Institut Nacional d'Educació Física de Catalunya",
                    "address": "Partida Caparrella, s/n, 25192 Lleida",
                    "coordinates": [
                        41.60008852741841,
                        0.5801072613709426
                    ]
                }
            ]
        },
        {
            "name": "Escola Universitària de Turisme Ostelea",
            "parent": "Universitat de Lleida",
            "type": "school",
            "areas": [
                {
                    "name": "Escola Universitària de Turisme Ostelea",
                    "address": "C/ de Mallorca, 27, 08029 Barcelona",
                    "coordinates": [
                        41.38320509558839,
                        2.147601230685471
                    ]
                }
            ]
        },
        {
            "name": "Centre d'Educació Superior Next",
            "acronym": "CES",
            "parent": "Universitat de Lleida",
            "type": "center",
            "areas": [
                {
                    "name": "Centre d'Educació Superior Next",
                    "address": "C. de Almagro, 42, 28010 Madrid",
                    "coordinates": [
                        40.432084694705964,
                        -3.691552951153785
                    ]
                }
            ]
        },
        {
            "name": "Universitat de Vic",
            "acronym": "UVic",
            "type": "campus",
            "areas": [
                {
                    "name": "Campus Miramarges",
                    "address": "Carrer de la Sagrada Família, 7, 08500 Vic, Barcelona",
                    "coordinates": [
                        41.93388878106282,
                        2.247238882400559
                    ]
                },
                {
                    "name": "Campus Torre dels Frares",
                    "address": "Carrer de la Laura, 13, 08500 Vic, Barcelona",
                    "coordinates": [
                        41.93082736894905,
                        2.2456432842502783
                    ]
                }
            ]
        },
        {
            "name": "Universitat de Girona",
            "acronym": "UdG",
            "type": "campus",
            "areas": [
                {
                    "name": "Campus Barri Vell",
                    "address": "17004 Girona",
                    "coordinates": [
                        41.98602709472981,
                        2.827869764855122
                    ]
                },
                {
                    "name": "Campus Centre",
                    "address": "Emili Grahit, 77, 17071 Girona",
                    "coordinates": [
                        41.97462521811097,
                        2.8236113382233707
                    ]
                },
                {
                    "name": "Campus PCIT",
                    "address": "Carrer Pic de Peguera, 15, 17003 Girona",
                    "coordinates": [
                        41.96741689447232,
                        2.8369580419226965
                    ]
                },
                {
                    "name": "Campus Montilvi",
                    "address": "Campus Montilivi, 17003 Girona",
                    "coordinates": [
                        41.96366528731844,
                        2.829459455415564
                    ]
                }
            ]
        },
        {
            "name": "Escola Universitària de la Salut i l'Esport",
            "acronym": "EUSES",
            "parent": "Universitat de Girona",
            "type": "school",
            "areas": [
                {
                    "name": "Escola Universitària de la Salut i l'Esport",
                    "address": "Carrer del President Francesc Macià, 65, 17190 Salt, Girona",
                    "coordinates": [
                        41.9692645102071,
                        2.793330584251422
                    ]
                }
            ]
        },
        {
            "name": "Escola Universitària de Turisme Euroaula",
            "parent": "Universitat de Girona",
            "type": "school",
            "areas": [
                {
                    "name": "Escola Universitària de Turisme Euroaula",
                    "address": "C/ d'Aragó, 208, 210, 08011 Barcelona",
                    "coordinates": [
                        41.387810564721136,
                        2.1593712977273705
                    ]
                }
            ]
        },
        {
            "name": "Escola Universitària d'Hoteleria i Turisme de Sant Pol de Mar",
            "parent": "Universitat de Girona",
            "type": "school",
            "areas": [
                {
                    "name": "Escola Universitària d'Hoteleria i Turisme de Sant Pol de Mar",
                    "address": "N-II, Km. 664, 08395 Sant Pol de Mar, Barcelona",
                    "coordinates": [
                        41.60235255638898,
                        2.6272442842406862
                    ]
                }
            ]
        },
        {
            "name": "Escola Universitària ERAM",
            "parent": "Universitat de Girona",
            "type": "school",
            "areas": [
                {
                    "name": "Escola Universitària ERAM",
                    "address": "Carrer Sant Antoni 1 Edifici Kropotkin, 1ª Planta Factoria Cultural Coma Cros, 17190 Salt, Girona",
                    "coordinates": [
                        41.97753882135717,
                        2.795714870758697
                    ]
                }
            ]
        },
        {
            "name": "Escola Universitària Formatic Barcelona",
            "parent": "Universitat de Girona",
            "type": "school",
            "areas": [
                {
                    "name": "Escola Universitària Formatic Barcelona",
                    "address": "Passeig de Gràcia 66, Pg. de Gràcia, 71, 08007 Barcelona",
                    "coordinates": [
                        41.39335649827799,
                        2.1642411400561463
                    ]
                }
            ]
        },
        {
            "name": "Escola Universitària Mediterrani",
            "parent": "Universitat de Girona",
            "type": "school",
            "areas": [
                {
                    "name": "Escola Universitària Mediterrani",
                    "address": "C. de Rocafort, 104, 08015 Barcelona",
                    "coordinates": [
                        41.38087291250191,
                        2.1523397
                    ]
                }
            ]
        },
        {
            "name": "Blanquerna",
            "parent": "Universitat Ramon Llull",
            "type": "faculties",
            "areas": [
                {
                    "name": "Facultat de Psicologia, Ciències de l'Educació i de l'Esport",
                    "address": "Carrer del Císter, 34, 08022 Barcelona",
                    "coordinates": [
                        41.41158152154075,
                        2.1328822130708005
                    ]
                },
                {
                    "name": "Facultat de Ciències de la Salut",
                    "address": "C/ de Padilla, 326, 08025 Barcelona",
                    "coordinates": [
                        41.41075139093097,
                        2.1713771366913166
                    ]
                },
                {
                    "name": "Facultat de Comunicació i Relacions Internacionals",
                    "address": "Plaça de Joan Coromines, 08001 Barcelona",
                    "coordinates": [
                        41.3837247770369,
                        2.166202026562941
                    ]
                }
            ]
        },
        {
            "name": "IQS",
            "parent": "Universitat Ramon Llull",
            "type": "school",
            "areas": [
                {
                    "name": "IQS SCHOOL OF ENGINEERING",
                    "address": "Via Augusta, 390, 08017 Barcelona",
                    "coordinates": [
                        41.40328419055635,
                        2.1196962400564576
                    ]
                },
                {
                    "name": "IQS SCHOOL OF MANAGEMENT",
                    "address": "Via Augusta, 390, 08017 Barcelona",
                    "coordinates": [
                        41.40328419055635,
                        2.1196962400564576
                    ]
                }
            ]
        },
        {
            "name": "La Salle URL FICEDLS",
            "parent": "Universitat Ramon Llull",
            "type": "campus",
            "areas": [
                {
                    "name": "Campus Barcelona",
                    "address": "Carrer de Sant Joan de la Salle, 42, 08022 Barcelona",
                    "coordinates": [
                        41.40872327395979,
                        2.1300787265636516
                    ]
                }
            ]
        },
        {
            "name": "Universitat Ramon Llull",
            "acronym": "URL",
            "parent": "Universitat Ramon Llull",
            "type": "faculties",
            "areas": [
                {
                    "name": "Facultat de Filosofia de Catalunya",
                    "address": "Carrer de la Diputació, 231, 08007 Barcelona",
                    "coordinates": [
                        41.38816716514058,
                        2.1633669265630395
                    ]
                }
            ]
        },
        {
            "name": "ESADE",
            "type": "campus",
            "parent": "Universitat Ramon Llull",
            "areas": [
                {
                    "name": "Campus Barcelona - Sant Cugat",
                    "address": "Avinguda de la Torre Blanca, 59, 08172 Sant Cugat del Vallès, Barcelona",
                    "coordinates": [
                        41.46730832952267,
                        2.09138082471557
                    ]
                },
                {
                    "name": "Campus Barcelona - Pedralbes",
                    "address": "Av. de Pedralbes, 60, 62, 08034 Barcelona",
                    "coordinates": [
                        41.394022196382195,
                        2.1148286823847764
                    ]
                },
                {
                    "name": "Campus Madrid",
                    "address": "C. de Mateo Inurria, 25, 27, 28036 Madrid",
                    "coordinates": [
                        40.46778626109639,
                        -3.682340032984537
                    ]
                }
            ]
        },
        {
            "name": "Facultat d'Educació Social i Treball Social Pere Tarrés",
            "parent": "Universitat Ramon Llull",
            "type": "faculties",
            "areas": [
                {
                    "name": "Facultat d’Educació Social i Treball Social Pere Tarrés, Universitat Ramon Llull",
                    "address": "Carrer de Santaló, 37, 08021 Barcelona",
                    "coordinates": [
                        41.395777007790564,
                        2.1456775130703187
                    ]
                }
            ]
        },
        {
            "name": "Institut Borja de Bioètica",
            "parent": "Universitat Ramon Llull",
            "type": "institute",
            "areas": [
                {
                    "name": "Institut Borja de Bioètica",
                    "coordinates": [
                        41.385181924844545,
                        2.1030232130700215
                    ],
                    "address": "Carrer de Santa Rosa, 6, 08950 Esplugues de Llobregat, Barcelona"
                }
            ]
        },
        {
            "name": "Escola Superior de Disseny",
            "acronym": "ESDI",
            "parent": "Universitat Ramon Llull",
            "type": "school",
            "areas": [
                {
                    "name": "Campus ESDI Sabadell",
                    "address": "Carrer del Marquès de Comillas, 81-83, 08202 Sabadell, Barcelona",
                    "coordinates": [
                        41.54361876971417,
                        2.116521526567595
                    ]
                }
            ]
        },
        {
            "name": "Universitat Abat Oliba CEU",
            "type": "campus",
            "areas": [
                {
                    "name": "Campus Barcelona Universitat Abat Oliba",
                    "address": "Carrer de Bellesguard, 30, 08022 Barcelona",
                    "coordinates": [
                        41.41026370355065,
                        2.126427897728011
                    ]
                }
            ]
        },
        {
            "name": "Escola Superior d'Hostaleria de Barcelona",
            "acronym": "ESHOB",
            "type": "school",
            "parent": "Universitat Abat Oliba CEU",
            "areas": [
                {
                    "name": "Escola Superior d'Hostaleria de Barcelona",
                    "address": "Pg. del Taulat, 243, 08019 Barcelona",
                    "coordinates": [
                        41.404469519338605,
                        2.211515655399181
                    ]
                }
            ]
        },
        {
            "name": "IDEP Barcelona, Escola Superior d’Imatge i Disseny",
            "type": "school",
            "parent": "Universitat Abat Oliba CEU",
            "areas": [
                {
                    "name": "IDEP Barcelona, Escola Superior d’Imatge i Disseny",
                    "address": "Gran Via de les Corts Catalanes, 461, 08015 Barcelona",
                    "coordinates": [
                        41.379763134241344,
                        2.154310413069852
                    ]
                }
            ]
        },
        {
            "name": "Instituto Superior Santo Tomás, Fundación Balmesiana",
            "type": "institute",
            "parent": "Universitat Abat Oliba CEU",
            "areas": [
                {
                    "name": "Instituto Superior Santo Tomás, Fundación Balmesiana",
                    "address": "Carrer de Duran i Bas, 9, 08002 Barcelona",
                    "coordinates": [
                        41.38580472058695,
                        2.1745730842343596
                    ]
                }
            ]
        },
        {
            "name": "Universitat Rovira i Virgili",
            "type": "campus",
            "areas": [
                {
                    "name": "Campus Catalunya",
                    "address": "Av. Catalunya, 35, 43002 Tarragona",
                    "coordinates": [
                        41.12275022818675,
                        1.2516279130624337
                    ]
                },
                {
                    "name": "Campus Sescelades",
                    "address": "Campus Sescelades, Carretera de Valls, S/N, 43007 Tarragona",
                    "coordinates": [
                        41.13315777181973,
                        1.2429016400486488
                    ]
                },
                {
                    "name": "Campus Bellissens",
                    "address": "Av. de la Universitat, 4, 43204 Reus, Tarragona",
                    "coordinates": [
                        41.145449906145046,
                        1.1210224265560156
                    ]
                },
                {
                    "name": "Campus Vila-seca",
                    "address": "Carrer de Joanot Martorell, 15, 43480 Vila-seca, Tarragona",
                    "coordinates": [
                        41.10278635188233,
                        1.1474575879257563
                    ]
                },
                {
                    "name": "Campus Terres de l'Ebre",
                    "address": "Av. de Remolins, 13, 43500 Tortosa, Tarragona",
                    "coordinates": [
                        40.819262862593035,
                        0.5213063977109659
                    ]
                },
                {
                    "name": "Seu del Baix Penedès",
                    "address": "Av. Palfuriana, 104, 43880 Coma-ruga, Tarragona",
                    "coordinates": [
                        41.18367649247588,
                        1.5298998112144058
                    ]
                },
                {
                    "name": "Seu Vilafranca del Penedès",
                    "address": "Av. Palfuriana, 104, 43880 Coma-ruga, Tarragona",
                    "coordinates": [
                        41.18365226882412,
                        1.5299427265571415
                    ]
                }
            ]
        },
        {
            "name": "Barcelona School of Economics",
            "acronym": "BSE",
            "type": "school",
            "areas": [
                {
                    "name": "Barcelona School of Economics",
                    "address": "Carrer de Ramon Trias Fargas, 25-27, 08005 Barcelona",
                    "coordinates": [
                        41.389897108129546,
                        2.1897009977274204
                    ]
                }
            ]
        },
        {
            "name": "Institute for Advanced Architecture of Catalonia",
            "acronym": "IAAC",
            "type": "institute",
            "areas": [
                {
                    "name": "Institute for Advanced Architecture of Catalonia",
                    "address": "C. de Pujades, 102, 08005 Barcelona",
                    "coordinates": [
                        41.39689198466377,
                        2.1943474112205674
                    ]
                }
            ]
        },
        {
            "name": "University for Technology and Design",
            "type": "faculties",
            "areas": [
                {
                    "name": "University for Technology and Design Faculty",
                    "address": "Carrer de Rosa Sensat, 9, 08005 Barcelona",
                    "coordinates": [
                        41.390728809811385,
                        2.196706511220371
                    ]
                }
            ]
        },
        {
            "name": "Escola Superior de Conservació i Restauració de Béns Culturals de Catalunya",
            "type": "school",
            "areas": [
                {
                    "name": "Escola Superior de Conservació i Restauració de Béns Culturals de Catalunya",
                    "address": "Carrer d'Aiguablava, 109, 113, 08033 Barcelona",
                    "coordinates": [
                        41.45198728282359,
                        2.1860466284147084
                    ]
                }
            ]
        },
        {
            "name": "ESIC Barcelona",
            "type": "campus",
            "areas": [
                {
                    "name": "Campus Postgrau",
                    "address": "Carrer de Marià Cubí, 124, 08021 Barcelona",
                    "coordinates": [
                        41.39632829322433,
                        2.1459076688919243
                    ]
                },
                {
                    "name": "Campus Universitari",
                    "address": "Passeig de Santa Eulàlia, 2, 08017 Barcelona",
                    "coordinates": [
                        41.404087878380196,
                        2.116573170741927
                    ]
                }
            ]
        },
        {
            "name": "IESE Business School",
            "type": "campus",
            "areas": [
                {
                    "name": "Campus Nord Barcelona",
                    "address": "Carrer d'Arnús i de Garí, 3, 7, 08034 Barcelona",
                    "coordinates": [
                        41.39375403472011,
                        2.1057634141591346
                    ]
                },
                {
                    "name": "Campus Sud Barcelona",
                    "coordinates": [
                        41.39356891684179,
                        2.1079735543100218
                    ],
                    "address": "Av. de Pearson, 21, 08034 Barcelona"
                },
                {
                    "name": "Campus Madrid",
                    "coordinates": [
                        40.45206368975083,
                        -3.757785675313609
                    ],
                    "address": "Cam. Cerro del Águila, 3, 28023 Madrid"
                }
            ]
        },
        {
            "name": "GBSB Global Business School",
            "type": "campus",
            "areas": [
                {
                    "name": "Campus Barcelona",
                    "address": "C/ d'Aragó, 179, 08011 Barcelona",
                    "coordinates": [
                        41.387289968490315,
                        2.157968541905759
                    ]
                },
                {
                    "name": "Campus Madrid",
                    "address": "C. de Numancia, 6, 28039 Madrid",
                    "coordinates": [
                        40.45425206703995,
                        -3.7123822446280728
                    ]
                }
            ]
        },
        {
            "name": "Escola d'Art i Superior de Disseny en Barcelona",
            "type": "faculties",
            "areas": [
                {
                    "name": "Seu Llotja Sant Gervasi",
                    "coordinates": [
                        41.40267762536709,
                        2.1361135241717912
                    ],
                    "address": "Carrer de la Ciutat de Balaguer, 17, 08022 Barcelona"
                },
                {
                    "name": "Seu Llotja Sant Andreu",
                    "address": "Carrer del Pare Manyanet, 38, 08027 Barcelona",
                    "coordinates": [
                        41.42888641413243,
                        2.1915813406457327
                    ]
                }
            ]
        },
        {
            "name": "Fundació Conservatori Liceu",
            "type": "faculties",
            "areas": [
                {
                    "name": "Fundació Conservatori Liceu",
                    "address": "Carrer Nou de la Rambla, 88, 08001 Barcelona",
                    "coordinates": [
                        41.37628744069495,
                        2.171033399576811
                    ]
                }
            ]
        },
        {
            "name": "EAE Business School",
            "type": "campus",
            "areas": [
                {
                    "name": "Campus Barcelona",
                    "address": "C/ d'Aragó, 28, 08015 Barcelona",
                    "coordinates": [
                        41.38121791425907,
                        2.1499487767136785
                    ]
                },
                {
                    "name": "Campus Madrid",
                    "address": "C. de Joaquín Costa, 41, 28002 Madrid",
                    "coordinates": [
                        40.443966723974306,
                        -3.6835024406321115
                    ]
                },
                {
                    "name": "Campus Madrid",
                    "address": "C. del Príncipe de Vergara, 156, 28002 Madrid",
                    "coordinates": [
                        40.44868690167593,
                        -3.677417528988951
                    ]
                }
            ]
        },
        {
            "name": "Barcelona Business School",
            "acronym": "UIBS",
            "type": "campus",
            "areas": [
                {
                    "name": "Campus Barcelona",
                    "address": "Cross-Cultural Education Center, Rambla de Catalunya, 2, 08007 Barcelona",
                    "coordinates": [
                        41.3878957138289,
                        2.168280340055993
                    ]
                }
            ]
        },
        {
            "name": "Davinci Escola d'Art",
            "type": "school",
            "areas": [
                {
                    "name": "Davinci Escola d'Art",
                    "address": "C/ de Roger de Llúria, 104, Principal, 1a, 08037 Barcelona",
                    "coordinates": [
                        41.396340948318155,
                        2.1650192958778196
                    ]
                }
            ]
        }
    ]
}